,City,Country,Latitude,Longitude,Temperature,Max Temp,Min Temp,Humidity,Wind Speed,Cloudiness
0,Conceição do Araguaia,BR,-8.26,-49.26,299.87,299.87,299.87,80,0.89,78
1,Saskylakh,RU,71.92,114.08,255.83,255.83,255.83,90,6.68,19
2,Leningradskiy,RU,69.38,178.42,262.49,262.49,262.49,87,1.78,94
3,Albany,US,42.6,-73.97,280.48,283.15,277.59,34,6.7,75
4,Hobart,AU,-42.88,147.33,282.98,284.26,279.82,62,4.1,75
5,Srednekolymsk,RU,67.45,153.68,267.31,267.31,267.31,96,4.99,90
6,Puerto Ayora,EC,-0.74,-90.35,300.69,302.15,299.82,70,3.1,40
7,Ushuaia,AR,-54.8,-68.3,279.15,279.15,279.15,75,11.8,75
8,Sorong,ID,-0.88,131.25,297.88,297.88,297.88,89,0.13,5
9,Tuktoyaktuk,CA,69.45,-133.04,257.15,257.15,257.15,84,3.1,20
10,Punta Arenas,CL,-53.15,-70.92,282.09,282.15,282.04,61,6.7,65
11,Leh,IN,34.17,77.58,273.49,273.49,273.49,18,0.8,5
12,Progreso,MX,21.28,-89.67,310.2,315.15,302.59,17,5.1,5
13,Khani,GE,41.96,42.96,279.15,279.15,279.15,93,1.0,75
14,Pitimbu,BR,-7.47,-34.81,301.15,301.15,301.15,78,4.6,20
15,Saint George,US,37.1,-113.58,290.72,292.15,288.15,34,6.7,1
16,Kiryat Gat,IL,31.61,34.76,285.02,287.15,282.04,82,1.5,16
17,Mataura,NZ,-46.19,168.86,287.59,287.59,287.59,64,2.24,100
18,Busselton,AU,-33.65,115.33,294.25,294.82,293.15,69,3.64,96
19,Haines Junction,CA,60.75,-137.51,273.92,273.92,273.92,63,0.75,0
20,Atuona,PF,-9.8,-139.03,301.37,301.37,301.37,68,3.34,64
21,Rikitea,PF,-23.12,-134.97,298.17,298.17,298.17,74,0.6,78
22,Bluff,NZ,-46.6,168.33,287.59,287.59,287.59,64,2.24,100
23,Lircay,PE,-12.99,-74.72,289.93,289.93,289.93,14,0.41,33
24,São Filipe,CV,14.9,-24.5,297.38,297.38,297.38,73,5.58,86
25,George Town,MY,5.41,100.34,300.46,301.15,299.82,88,1.0,20
26,Nabire,ID,-3.37,135.48,297.63,297.63,297.63,88,1.28,47
27,Isangel,VU,-19.55,169.27,298.15,298.15,298.15,83,2.75,20
28,Kanniyākumāri,IN,8.08,77.57,301.73,301.73,301.73,74,4.7,0
29,Carnarvon,AU,-24.87,113.63,297.15,297.15,297.15,100,4.1,14
30,Kavieng,PG,-2.57,150.8,301.79,301.79,301.79,73,2.2,99
31,Yārāda,IN,17.65,83.27,300.08,300.08,300.08,80,3.11,0
32,Mīzan Teferī,ET,6.98,35.58,291.28,291.28,291.28,57,1.41,8
33,Saint-Philippe,RE,-21.36,55.77,293.45,296.15,289.26,73,2.6,33
34,Bogács,HU,47.9,20.53,282.45,282.45,282.45,50,2.69,84
35,Kapaa,US,22.08,-159.32,298.47,299.15,298.15,69,2.1,90
36,Esperance,AU,-33.87,121.9,294.15,294.15,294.15,60,8.2,98
37,Moyale,KE,3.52,39.06,295.52,295.52,295.52,52,2.7,31
38,Warkworth,NZ,-36.4,174.67,291.95,292.59,291.48,63,5.7,30
39,Reitz,ZA,-27.8,28.43,287.08,287.08,287.08,36,1.13,0
40,Novokizhinginsk,RU,51.61,109.59,277.64,277.64,277.64,45,2.01,34
41,Roi Et,TH,16.06,103.65,302.07,302.07,302.07,58,2.14,91
42,Nantucket,US,41.28,-70.1,283.63,285.15,282.15,49,10.3,1
43,Provideniya,RU,64.38,-173.3,273.09,273.09,273.09,94,2.07,100
44,Auki,SB,-8.77,160.7,301.05,301.05,301.05,75,1.52,95
45,Madang,PG,-5.22,145.8,299.49,299.49,299.49,79,0.92,96
46,Nanortalik,GL,60.14,-45.24,276.25,276.25,276.25,72,12.63,100
47,Coahuayana Viejo,MX,18.73,-103.68,303.15,303.15,303.15,48,5.1,5
48,Longyearbyen,SJ,78.22,15.64,252.15,252.15,252.15,70,1.5,20
49,Vanimo,PG,-2.67,141.3,299.5,299.5,299.5,85,1.26,41
50,Chokurdakh,RU,70.63,147.92,270.49,270.49,270.49,98,6.19,99
51,Dubno,UA,50.42,25.73,276.8,276.8,276.8,65,2.42,0
52,Ellisras,ZA,-23.66,27.74,292.13,292.13,292.13,39,0.94,0
53,Mar del Plata,AR,-38.0,-57.56,292.43,293.15,291.48,60,4.1,37
54,Verkhnevilyuysk,RU,63.45,120.32,272.3,272.3,272.3,96,3.99,98
55,Kahului,US,20.89,-156.47,297.34,299.15,295.15,65,4.1,75
56,Butaritari,KI,3.07,172.79,302.03,302.03,302.03,76,5.97,95
57,Barrow,US,71.29,-156.79,260.15,260.15,260.15,84,5.1,90
58,Yerbogachën,RU,61.28,108.01,268.97,268.97,268.97,94,2.48,5
59,Khatanga,RU,71.97,102.5,254.79,254.79,254.79,93,3.58,32
60,Weleri,ID,-6.97,110.07,298.35,298.35,298.35,79,1.5,87
61,Jalu,LY,29.03,21.55,291.06,291.06,291.06,29,3.11,12
62,Deputatsky,RU,69.3,139.9,268.23,268.23,268.23,93,7.08,79
63,Butembo,CD,0.15,29.28,288.6,288.6,288.6,62,0.92,90
64,Koumac,NC,-20.57,164.28,298.55,298.55,298.55,70,3.45,18
65,Okato,NZ,-39.2,173.88,288.01,289.82,285.37,80,4.02,54
66,Mikhaylovka,RU,50.06,43.24,275.37,275.37,275.37,83,6.66,8
67,Port Pirie,AU,-33.18,138.02,285.15,285.15,285.15,76,4.6,0
68,Hithadhoo,MV,-0.6,73.08,302.35,302.35,302.35,65,2.85,0
69,Kirakira,SB,-10.45,161.92,301.16,301.16,301.16,77,2.85,95
70,Ponta do Sol,PT,32.67,-17.1,287.93,290.15,285.37,67,6.2,75
71,Husavik,IS,66.04,-17.34,274.15,274.15,274.15,69,12.9,75
72,Saint Paul Harbor,US,57.79,-152.41,278.15,278.15,278.15,75,7.2,90
73,Assiut,EG,27.18,31.18,290.15,290.15,290.15,42,4.1,0
74,Huarmey,PE,-10.07,-78.15,299.28,299.28,299.28,64,4.35,53
75,Kruisfontein,ZA,-34.0,24.73,289.86,289.86,289.86,54,1.01,89
76,Lüderitz,NA,-26.65,15.16,287.15,287.15,287.15,93,0.5,0
77,Dikson,RU,73.51,80.55,263.31,263.31,263.31,96,4.52,100
78,Jamestown,US,42.1,-79.24,280.62,282.04,279.15,48,6.7,1
79,Wasserburg,DE,48.44,10.27,282.26,284.26,280.15,57,1.0,0
80,Airai,TL,-8.93,125.41,288.78,288.78,288.78,72,0.45,98
81,Ludvika,SE,60.15,15.19,276.24,277.59,275.37,93,2.6,90
82,Bonavista,CA,48.65,-53.11,275.37,275.37,275.37,75,8.05,25
83,Santa Maria,BR,-29.68,-53.81,292.65,292.65,292.65,63,2.0,1
84,Santa Rosalía,MX,27.32,-112.28,293.16,293.16,293.16,42,2.78,3
85,Qaanaaq,GL,77.48,-69.36,263.18,263.18,263.18,75,1.05,91
86,Lufilufi,WS,-13.87,-171.6,303.15,303.15,303.15,79,2.6,75
87,Severo-Kuril'sk,RU,50.68,156.12,271.61,271.61,271.61,93,3.83,63
88,Bambous Virieux,MU,-20.34,57.76,298.42,298.71,298.15,83,5.1,40
89,Poshekhon'ye,RU,58.5,39.14,271.1,271.1,271.1,91,1.38,27
90,Namuac,PH,18.61,121.17,297.47,297.47,297.47,82,1.71,44
91,Berlevåg,NO,70.86,29.09,269.27,269.27,269.27,90,1.45,79
92,Lorengau,PG,-2.02,147.27,301.08,301.08,301.08,75,0.56,58
93,Padang,ID,-0.95,100.35,299.03,299.03,299.03,76,2.24,98
94,Bredasdorp,ZA,-34.53,20.04,295.0,295.15,294.82,56,7.7,100
95,Magadan,RU,59.57,150.8,265.36,265.36,265.36,91,2.68,92
96,Iqaluit,CA,63.75,-68.51,268.15,268.15,268.15,79,7.2,75
97,Port Blair,IN,11.67,92.75,300.96,300.96,300.96,72,3.26,63
98,Gizo Government Station,SB,-8.1,156.84,301.13,301.13,301.13,78,2.85,99
99,Hong Kong,HK,22.29,114.16,291.59,292.15,290.93,72,7.2,20
100,Fort Nelson,CA,58.81,-122.7,275.15,275.15,275.15,27,5.1,40
101,Copperas Cove,US,31.12,-97.9,294.59,296.48,293.15,83,4.6,90
102,Tasiilaq,GL,65.61,-37.64,272.15,272.15,272.15,39,6.2,72
103,Garachiné,PA,8.06,-78.36,301.71,301.71,301.71,77,1.85,100
104,Bose,IT,45.46,8.01,288.25,289.82,285.15,36,3.6,0
105,Hilo,US,19.73,-155.09,296.87,300.15,287.04,69,3.6,1
106,Ust'-Omchug,RU,61.15,149.63,265.64,265.64,265.64,89,1.52,88
107,Shitkino,RU,56.37,98.35,271.44,271.44,271.44,93,0.83,0
108,Ilulissat,GL,69.22,-51.1,272.15,272.15,272.15,68,2.6,100
109,Tanout,NE,14.97,8.89,300.99,300.99,300.99,13,4.08,98
110,Forestville,US,38.85,-76.88,289.23,290.37,287.59,26,3.1,1
111,Olafsvik,IS,64.89,-23.71,276.06,276.06,276.06,79,12.69,60
112,Vila Velha,BR,-20.33,-40.29,297.38,297.59,297.15,88,3.1,90
113,Kieta,PG,-6.22,155.63,300.56,300.56,300.56,77,1.18,92
114,Clyde River,CA,70.47,-68.59,260.15,260.15,260.15,78,5.7,75
115,Port Alfred,ZA,-33.59,26.89,293.15,293.15,293.15,92,0.45,77
116,Lebu,CL,-37.62,-73.65,287.51,287.51,287.51,55,7.56,0
117,Sotnikovo,RU,51.88,107.48,272.15,272.15,272.15,63,2.13,97
118,Carinhanha,BR,-14.3,-43.77,298.41,298.41,298.41,73,0.29,66
119,Cape Town,ZA,-33.93,18.42,291.04,291.48,290.37,93,8.7,75
120,Ribeira Grande,PT,38.52,-28.7,290.15,290.15,290.15,71,3.46,0
121,Egvekinot,RU,66.32,-179.17,263.84,263.84,263.84,82,0.82,0
122,Sioux Lookout,CA,50.1,-91.92,274.97,275.15,274.15,59,6.2,75
123,Faanui,PF,-16.48,-151.75,301.26,301.26,301.26,77,5.66,56
124,Avarua,CK,-21.21,-159.78,302.15,302.15,302.15,83,2.6,96
125,Campeche,MX,19.0,-90.5,315.34,315.34,315.34,12,2.99,0
126,Dunda,TZ,-8.12,34.25,291.05,291.05,291.05,65,1.43,92
127,Kirando,TZ,-7.42,30.6,296.64,296.64,296.64,60,2.65,62
128,Beli Potok,RS,44.71,20.52,283.51,284.15,283.15,61,2.6,9
129,Krasnogorodsk,RU,56.83,28.28,274.99,274.99,274.99,78,2.71,32
130,Bethel,US,41.37,-73.41,284.04,286.15,281.48,25,3.6,20
131,Develi,TR,38.39,35.49,276.15,276.15,276.15,69,1.0,20
132,Mitzic,GA,0.78,11.55,292.53,292.53,292.53,84,0.96,100
133,Melo,UY,-32.37,-54.18,292.73,292.73,292.73,57,2.4,64
134,Colares,PT,38.8,-9.45,287.28,288.15,285.93,82,4.6,20
135,Broome,US,42.25,-75.83,280.47,282.04,279.15,33,5.1,20
136,Tiksi,RU,71.69,128.87,262.64,262.64,262.64,93,7.93,37
137,Umm Kaddadah,SD,13.6,26.69,299.58,299.58,299.58,13,7.33,89
138,Laguna,US,38.42,-121.42,291.99,294.82,288.71,68,3.6,40
139,Nānākuli,US,21.39,-158.15,299.84,302.15,298.15,69,2.6,20
140,Umluj,SA,25.02,37.27,294.01,294.01,294.01,51,3.33,1
141,Quatre Cocos,MU,-20.21,57.76,298.45,298.71,298.15,83,5.1,40
142,Torbay,CA,47.67,-52.73,275.5,276.15,274.26,59,13.4,75
143,Saint-Pierre,RE,-21.34,55.48,294.28,297.15,289.26,73,1.5,40
144,Baykit,RU,61.67,96.37,268.18,268.18,268.18,93,1.37,47
145,Hvolsvollur,IS,63.75,-20.22,275.93,275.93,275.93,80,1.79,51
146,Ahipara,NZ,-35.17,173.17,291.77,291.77,291.77,77,6.55,90
147,Pasni,PK,25.26,63.47,298.58,298.58,298.58,74,1.25,20
148,Los Llanos de Aridane,ES,28.66,-17.92,293.15,293.15,293.15,77,5.1,75
149,Vawkavysk,BY,53.16,24.45,276.12,276.12,276.12,66,1.24,62
150,Rørvik,NO,64.86,11.24,276.5,276.5,276.5,77,5.58,100
151,Constitución,CL,-35.33,-72.42,288.9,288.9,288.9,65,6.09,60
152,Vaini,TO,-21.2,-175.2,299.15,299.15,299.15,69,2.1,20
153,Nouakchott,MR,18.09,-15.98,298.05,298.05,298.05,50,7.69,0
154,Porto Velho,BR,-8.76,-63.9,300.15,300.15,300.15,83,2.1,75
155,Portland,US,45.52,-122.68,287.97,289.82,285.93,44,1.5,40
156,Zhigansk,RU,66.77,123.37,269.21,269.21,269.21,97,5.07,98
157,Caucayá,CO,-0.19,-74.78,302.75,302.75,302.75,69,0.37,53
158,Zverinogolovskoye,RU,54.46,64.85,277.68,277.68,277.68,76,3.55,100
159,Dezful,IR,32.38,48.41,292.94,292.94,292.94,31,1.57,0
160,Katsuura,JP,35.13,140.3,282.1,283.15,280.37,93,5.7,75
161,Podor,MR,16.65,-14.96,308.15,308.15,308.15,20,1.0,48
162,Yatou,CN,37.15,122.38,279.99,279.99,279.99,59,5.48,13
163,Syracuse,IT,37.09,15.28,283.7,285.93,281.15,87,2.6,9
164,Upernavik,GL,72.79,-56.15,266.97,266.97,266.97,89,0.44,100
165,Kavaratti,IN,10.57,72.64,302.23,302.23,302.23,68,1.48,0
166,Salalah,OM,17.02,54.09,301.15,301.15,301.15,74,4.1,40
167,Biskamzha,RU,53.45,89.53,269.97,269.97,269.97,84,1.95,0
168,Nioro,GM,13.35,-15.75,299.57,299.57,299.57,47,4.71,3
169,Arrondissement du Havre,FR,49.58,0.33,287.24,290.15,284.26,51,1.0,30
170,Bilibino,RU,68.05,166.44,260.93,260.93,260.93,90,0.56,92
171,Santa Barbara,US,34.42,-119.7,293.1,295.93,290.15,64,5.1,1
172,Bandundu Province,CD,-3.32,17.37,297.39,297.39,297.39,81,1.37,51
173,Crib Point,AU,-38.35,145.2,284.55,286.48,282.59,83,7.05,68
174,Norman Wells,CA,65.28,-126.83,271.15,271.15,271.15,54,5.1,40
175,Honggang,CN,46.47,124.87,278.71,278.71,278.71,54,0.74,7
176,New Norfolk,AU,-42.78,147.06,282.63,284.26,279.82,62,4.1,75
177,Rabo de Peixe,PT,37.8,-25.58,287.15,287.15,287.15,76,7.2,20
178,Esim,GH,4.87,-2.24,300.5,300.5,300.5,83,2.76,60
179,Rehli,IN,23.63,79.08,300.7,300.7,300.7,14,0.98,0
180,Karratha,AU,-20.74,116.85,300.58,300.58,300.58,50,3.7,0
181,Kutum,SD,14.2,24.67,294.09,294.09,294.09,15,4.35,9
182,Bodden Town,KY,19.28,-81.25,302.78,304.15,301.48,66,4.1,20
183,Saint-Augustin,CA,51.23,-58.65,273.42,273.42,273.42,96,2.5,100
184,Ulladulla,AU,-35.35,150.47,279.43,284.15,274.82,57,5.7,0
185,Arraial do Cabo,BR,-22.97,-42.03,295.15,295.15,295.15,83,2.6,75
186,Ostrovnoy,RU,68.05,39.51,264.12,264.12,264.12,93,5.13,51
187,Narsaq,GL,60.92,-46.05,280.15,280.15,280.15,36,17.5,100
188,Tutóia,BR,-2.76,-42.27,302.15,302.15,302.15,83,4.1,40
189,Yellowknife,CA,62.46,-114.35,265.22,265.93,264.82,57,7.2,40
190,Meulaboh,ID,4.14,96.13,299.95,299.95,299.95,79,0.2,48
191,Savalou,BJ,7.93,1.98,303.25,303.25,303.25,55,3.63,96
192,Kununurra,AU,-15.77,128.73,298.15,298.15,298.15,78,1.5,90
193,Paamiut,GL,61.99,-49.67,274.95,274.95,274.95,86,1.07,100
194,San Patricio,MX,19.22,-104.7,303.15,303.15,303.15,74,10.3,40
195,Abhā,SA,18.22,42.51,291.62,292.15,291.15,55,0.89,22
196,Ruidoso,US,33.33,-105.67,288.77,295.15,283.71,10,10.3,1
197,Saldanha,ZA,-33.01,17.94,290.15,290.15,290.15,88,5.7,98
198,Brae,GB,60.4,-1.35,281.15,281.15,281.15,87,9.3,100
199,São José da Coroa Grande,BR,-8.9,-35.15,301.01,301.01,301.01,74,4.07,1
200,Spirit River,CA,55.78,-118.84,273.15,273.15,273.15,71,5.7,75
201,Tuatapere,NZ,-46.13,167.68,287.59,287.59,287.59,64,2.24,81
202,Puerto Escondido,MX,15.85,-97.07,301.15,301.15,301.15,78,3.6,40
203,General Pico,AR,-35.66,-63.76,296.68,296.68,296.68,41,4.16,28
204,Camacha,PT,33.08,-16.33,290.15,290.15,290.15,67,6.2,40
205,Ola,RU,59.58,151.28,264.76,264.76,264.76,91,2.51,94
206,Maniitsoq,GL,65.42,-52.9,276.78,276.78,276.78,72,2.12,91
207,Sembakung,ID,3.82,117.25,296.23,296.23,296.23,96,1.35,63
208,Castro,BR,-24.79,-50.01,289.23,289.23,289.23,66,1.04,13
209,Cherskiy,RU,68.75,161.3,263.03,263.03,263.03,96,5.56,100
210,Ambon City,ID,-3.7,128.18,301.07,301.07,301.07,74,1.81,29
211,Lompoc,US,34.64,-120.46,291.36,295.93,288.15,67,7.7,20
212,La Macarena,CO,2.18,-73.78,303.24,303.24,303.24,61,1.59,81
213,Nísia Floresta,BR,-6.09,-35.21,301.15,301.15,301.15,78,3.6,20
214,Sola,VU,-13.88,167.55,302.15,302.15,302.15,74,5.55,75
215,Yar-Sale,RU,66.83,70.83,262.09,262.09,262.09,93,3.66,30
216,Sokolo,ML,14.73,-6.12,305.33,305.33,305.33,22,0.89,50
217,Acapulco de Juárez,MX,16.86,-99.89,302.15,302.15,302.15,74,4.1,40
218,Caravelas,BR,-17.71,-39.25,299.38,299.38,299.38,85,4.94,62
219,Batyrevo,RU,55.07,47.61,275.52,275.52,275.52,93,2.48,100
220,Port-Gentil,GA,-0.72,8.78,298.78,298.78,298.78,87,5.36,100
221,Jüterbog,DE,51.98,13.08,280.09,284.26,277.15,60,1.64,80
222,Richards Bay,ZA,-28.78,32.04,295.87,295.87,295.87,78,7.05,77
223,Necochea,AR,-38.55,-58.74,292.59,292.59,292.59,62,2.24,85
224,Tranby,NO,59.82,10.25,278.16,279.26,276.48,93,3.6,100
225,Codrington,AU,-38.27,141.97,284.83,284.83,284.83,71,5.02,98
226,Pevek,RU,69.7,170.31,258.92,258.92,258.92,91,5.92,62
227,San Andrés,CO,12.58,-81.7,303.15,303.15,303.15,74,5.1,40
228,Orán,AR,-23.13,-64.33,297.59,297.59,297.59,62,1.75,0
229,Gweru,ZW,-19.45,29.82,288.25,288.25,288.25,48,2.53,90
230,Kaitangata,NZ,-46.28,169.85,286.82,286.82,286.82,62,4.0,92
231,Puerto Ayacucho,VE,5.66,-67.62,308.15,308.15,308.15,44,4.6,75
232,Saurimo,AO,-9.66,20.39,291.9,291.9,291.9,71,1.73,78
233,Dhārchula,IN,29.85,80.53,287.6,287.6,287.6,18,3.94,0
234,Tabas,IR,33.6,56.92,291.15,291.15,291.15,82,1.0,100
235,East London,ZA,-33.02,27.91,296.7,296.7,296.7,67,1.35,94
236,Rio Grande,BR,-32.03,-52.1,291.48,291.48,291.48,78,4.6,0
237,Palana,RU,59.12,159.97,262.46,262.46,262.46,90,2.01,0
238,Bathsheba,BB,13.22,-59.52,301.15,301.15,301.15,65,5.7,20
239,Abong Mbang,CM,3.98,13.18,293.18,293.18,293.18,63,1.5,97
240,Wilmington,US,34.23,-77.94,290.42,292.04,288.71,36,6.2,1
241,Bakel,SN,14.9,-12.46,305.73,305.73,305.73,11,2.26,24
242,Sisimiut,GL,66.94,-53.67,275.09,275.09,275.09,79,2.99,96
243,Hermanus,ZA,-34.42,19.23,292.82,294.82,290.37,61,4.47,100
244,Nelson Bay,AU,-32.72,152.15,285.85,287.59,284.15,71,4.1,4
245,Havelock,US,34.88,-76.9,289.99,292.15,288.15,24,5.1,1
246,Dingle,PH,11.0,122.67,297.78,297.78,297.78,78,2.43,10
247,Guerrero Negro,MX,27.98,-114.06,292.63,292.63,292.63,49,7.74,10
248,Båtsfjord,NO,70.63,29.72,266.29,266.29,266.29,90,1.87,30
249,Mahébourg,MU,-20.41,57.7,298.37,298.71,298.15,83,5.1,40
250,Lishu,CN,43.3,124.33,277.6,277.6,277.6,60,2.14,0
251,Beloha,MG,-25.17,45.05,296.25,296.25,296.25,72,4.85,89
252,Omsukchan,RU,62.53,155.8,261.16,261.16,261.16,87,0.82,100
253,Nikolskoye,RU,59.7,30.79,271.54,272.15,270.93,92,2.0,5
254,Trojes,AL,41.76,19.96,285.15,285.15,285.15,71,1.5,1
255,Fethiye,TR,36.62,29.12,284.15,284.15,284.15,87,2.1,0
256,Shebunino,RU,46.43,141.86,272.68,272.68,272.68,92,3.58,7
257,Askarovo,RU,53.34,58.51,275.15,275.15,275.15,100,3.0,40
258,Kidal,ML,18.44,1.41,305.8,305.8,305.8,16,4.12,19
259,Nibbar,TN,36.29,8.77,286.15,286.15,286.15,82,1.5,42
260,Gornopravdinsk,RU,60.05,69.9,274.17,274.17,274.17,90,2.41,11
261,Zihuatanejo,MX,17.63,-101.55,303.15,303.15,303.15,66,5.1,5
262,Canala,NC,-21.53,165.95,298.15,298.15,298.15,57,1.5,90
263,Ambam,CM,2.38,11.28,292.49,292.49,292.49,74,0.81,100
264,Tautira,PF,-17.73,-149.15,303.15,303.15,303.15,70,2.6,100
265,Kichera,RU,55.94,110.1,276.61,276.61,276.61,67,1.59,100
266,Mangaldai,IN,26.43,92.03,296.76,296.76,296.76,37,2.58,3
267,Roquetas de Mar,ES,36.76,-2.61,290.26,290.37,290.15,59,5.1,90
268,Aldine,US,29.93,-95.38,297.04,298.15,295.93,73,8.2,90
269,Hasaki,JP,35.73,140.83,280.4,281.15,279.15,93,4.6,75
270,Waipawa,NZ,-41.41,175.52,289.08,290.15,288.71,72,9.8,55
271,Ancud,CL,-41.87,-73.82,285.15,285.15,285.15,62,2.6,20
272,Gardez,AF,33.6,69.23,283.51,283.51,283.51,39,1.3,99
273,Chara,RU,56.91,118.26,274.18,274.18,274.18,59,0.91,100
274,Samfya,ZM,-11.36,29.56,290.9,290.9,290.9,66,2.52,93
275,Wellington,NZ,-41.29,174.78,289.04,290.37,288.15,72,9.8,61
276,Bāgeshwar,IN,29.85,79.77,290.95,290.95,290.95,20,2.31,0
277,Hamilton,US,39.18,-84.53,289.2,290.37,287.59,25,4.1,75
278,San Juan,AR,-31.54,-68.54,298.67,298.67,298.67,28,5.25,96
279,Virginia Beach,US,36.85,-75.98,290.46,292.04,289.26,25,4.1,1
280,Diamantino,BR,-14.41,-56.45,299.3,299.3,299.3,77,1.9,30
281,Banyo,CM,6.75,11.82,291.9,291.9,291.9,53,0.56,100
282,Pokhvistnevo,RU,53.65,52.13,279.31,279.31,279.31,77,5.19,100
283,Marshall,US,34.38,-86.33,294.07,295.15,292.59,24,3.1,1
284,Diffa,NE,13.32,12.61,301.05,301.05,301.05,19,3.95,100
285,Port Hedland,AU,-20.32,118.57,296.15,296.15,296.15,78,3.1,0
286,Chui,UY,-33.7,-53.46,292.01,292.01,292.01,66,3.13,33
287,Grindavik,IS,63.84,-22.43,277.08,278.15,276.15,80,6.2,40
288,Vangaindrano,MG,-23.35,47.6,294.65,294.65,294.65,92,0.64,10
289,Lata,PT,40.16,-8.33,285.87,287.59,283.15,87,2.1,75
290,Gaoua,BF,10.3,-3.25,303.96,303.96,303.96,39,3.77,78
291,Mount Gambier,AU,-37.83,140.77,285.15,285.15,285.15,62,3.6,90
292,Black River,JM,18.03,-77.85,302.56,303.15,302.15,79,4.6,20
293,Masiga,PH,13.36,121.83,297.59,297.59,297.59,90,2.88,1
294,Anadyr,RU,64.75,177.48,257.09,257.15,257.04,84,7.0,9
295,Nome,US,64.5,-165.41,271.15,271.15,271.15,86,4.6,40
296,Mungwi,ZM,-10.17,31.37,289.33,289.33,289.33,68,1.68,62
297,Ixtapa,MX,20.7,-105.2,299.98,300.15,299.82,61,6.2,75
298,Cabadiangan,PH,9.75,122.47,298.88,298.88,298.88,74,1.96,62
299,Buraidah,SA,26.33,43.98,294.15,294.15,294.15,35,4.6,0
300,Puerto Madryn,AR,-42.77,-65.04,291.32,291.32,291.32,24,6.67,0
301,Okhotsk,RU,59.38,143.3,269.48,269.48,269.48,94,0.26,35
302,Aloleng,PH,16.13,119.78,299.58,299.58,299.58,77,2.08,10
303,Cayenne,GF,4.93,-52.33,301.15,301.15,301.15,69,3.6,20
304,Bengkulu,ID,-3.8,102.27,299.01,299.01,299.01,81,1.6,37
305,Alofi,NU,-19.06,-169.92,301.15,301.15,301.15,65,4.6,97
306,Touros,BR,-5.2,-35.46,301.15,301.15,301.15,78,3.1,20
307,Woodward,US,36.43,-99.39,301.82,303.15,300.37,16,5.7,40
308,Thompson,CA,55.74,-97.86,269.15,269.15,269.15,73,4.1,90
309,Mahibadhoo,MV,3.78,72.97,301.92,301.92,301.92,68,1.11,8
310,Mizdah,LY,31.45,12.98,288.98,288.98,288.98,38,6.12,0
311,Kālāgarh Project Colony,IN,29.5,78.75,296.81,296.81,296.81,27,2.32,0
312,Zyryanka,RU,65.75,150.85,266.91,266.91,266.91,95,5.18,5
313,Kupang,ID,-10.17,123.58,299.87,299.87,299.87,77,3.48,62
314,Synya,RU,65.37,58.04,263.53,263.53,263.53,95,1.97,63
315,Chitipa,MW,-9.7,33.27,290.39,290.39,290.39,66,0.75,84
316,Kapit,MY,2.02,112.93,295.49,295.49,295.49,94,0.25,36
317,La Plata,AR,-34.92,-57.95,293.59,295.15,292.15,82,4.1,0
318,Mīnāb,IR,27.15,57.08,299.15,299.15,299.15,83,4.1,100
319,Port Lincoln,AU,-34.73,135.87,286.9,286.9,286.9,64,3.15,81
320,Cuauhtémoc,MX,28.42,-106.87,293.15,293.15,293.15,6,8.49,0
321,Uíge,AO,-7.61,15.06,293.89,293.89,293.89,72,0.5,78
322,Kodīnar,IN,20.79,70.7,300.67,300.67,300.67,54,6.52,2
323,Ambilobe,MG,-13.2,49.05,296.3,296.3,296.3,84,2.11,0
324,Kemisē,ET,10.72,39.87,294.89,294.89,294.89,32,0.78,49
325,Departamento de Maldonado,UY,-34.67,-54.92,292.57,293.15,292.04,77,3.1,20
326,Katangli,RU,51.71,143.23,271.52,271.52,271.52,97,5.72,98
327,Powell River,CA,49.85,-124.54,287.68,288.15,287.15,28,4.1,5
328,Daru,PG,-9.08,143.21,299.6,299.6,299.6,84,4.05,93
329,Alyangula,AU,-13.85,136.42,297.15,297.15,297.15,100,3.2,77
330,Aklavik,CA,68.22,-135.01,266.15,266.15,266.15,57,4.1,20
331,Viedma,AR,-40.81,-63.0,290.2,290.2,290.2,40,5.92,100
332,Sakaiminato,JP,35.55,133.23,281.74,282.15,281.15,61,3.1,90
333,Sampit,ID,-2.53,112.95,295.96,295.96,295.96,98,0.97,91
334,Igarka,RU,67.47,86.58,275.19,275.19,275.19,97,8.85,100
335,Aguililla,MX,18.73,-102.73,309.26,309.26,309.26,11,2.09,60
336,Māngrol,IN,21.12,70.12,299.98,299.98,299.98,63,6.42,23
337,Zabid,YE,14.2,43.32,300.58,300.58,300.58,73,3.12,18
338,Lamesa,US,32.74,-101.95,300.4,302.04,299.15,44,3.6,75
339,Wanning,CN,18.8,110.4,297.02,297.02,297.02,90,1.72,98
340,Aswān,EG,24.09,32.91,292.25,292.25,292.25,25,4.88,0
341,Concarneau,FR,47.88,-3.92,285.15,285.37,284.82,87,1.5,90
342,Kenai,US,60.55,-151.26,274.97,276.15,274.15,47,5.7,1
343,Sheoganj,IN,25.15,73.07,299.34,299.34,299.34,22,0.74,22
344,Samarai,PG,-10.62,150.67,299.42,299.42,299.42,68,0.8,92
345,Takoradze,GH,4.88,-1.76,300.42,300.42,300.42,85,2.44,75
346,Mattru,SL,7.62,-11.83,299.96,299.96,299.96,77,1.85,80
347,Ondjiva,AO,-17.07,15.73,293.41,293.41,293.41,62,2.48,86
348,Dunedin,NZ,-45.87,170.5,285.93,285.93,285.93,95,4.09,100
349,North Platte,US,41.12,-100.77,293.52,294.82,290.37,30,2.1,40
350,Diego de Almagro,CL,-26.37,-70.05,297.2,297.2,297.2,18,4.52,45
351,Miranda,CO,3.25,-76.23,300.15,300.15,300.15,65,2.1,75
352,Qandala,SO,11.47,49.87,302.21,302.21,302.21,63,3.96,19
353,Majene,ID,-3.54,118.97,298.02,298.02,298.02,69,2.04,100
354,Aleysk,RU,52.49,82.78,274.71,274.71,274.71,80,2.75,0
355,Port-Cartier,CA,50.03,-66.87,279.15,279.15,279.15,30,7.7,75
356,Sisophon,KH,13.59,102.97,300.31,300.31,300.31,76,2.17,7
357,Tilichiki,RU,60.47,166.1,259.26,259.26,259.26,91,2.72,8
358,Labuhan,ID,-6.88,112.21,298.13,298.13,298.13,85,1.75,57
359,Bilma,NE,18.69,12.92,300.64,300.64,300.64,14,2.67,100
360,Balkhash,KZ,46.84,74.98,279.8,279.8,279.8,54,5.35,6
361,Łęczyca,PL,52.06,19.2,279.44,280.15,278.71,39,1.5,96
362,Suifenhe,CN,44.4,131.17,270.96,270.96,270.96,77,1.03,22
363,Karasjok,NO,69.47,25.51,271.15,271.15,271.15,68,6.2,94
364,Enshi,CN,30.3,109.48,283.72,283.72,283.72,69,0.99,93
365,Gladstone,AU,-23.85,151.25,296.15,296.15,296.15,83,1.0,40
366,Taltal,CL,-25.4,-70.48,293.51,293.51,293.51,65,3.1,25
367,Punta de Bombón,PE,-17.17,-71.79,296.26,296.26,296.26,75,2.91,82
368,Vao,NC,-22.67,167.48,297.7,297.7,297.7,74,6.91,27
369,Antalaha,MG,-14.9,50.28,298.02,298.02,298.02,83,5.31,17
370,Port Elizabeth,ZA,-33.92,25.57,290.15,290.15,290.15,63,3.1,89
371,Aranos,NA,-24.13,19.12,297.24,297.24,297.24,23,6.05,7
372,Kalabo,ZM,-14.97,22.68,292.55,292.55,292.55,65,1.71,98
373,Tamale,GH,9.4,-0.84,305.42,305.42,305.42,44,2.45,98
374,Sendhwa,IN,21.68,75.1,302.37,302.37,302.37,14,3.25,0
375,Jennings,US,38.72,-90.26,288.55,289.82,287.15,67,3.6,90
376,Uinskoye,RU,56.88,56.58,275.78,275.78,275.78,82,2.99,100
377,Paralímni,CY,35.04,33.98,286.66,288.71,285.15,87,2.6,0
378,Burrel,AL,41.61,20.01,285.15,285.15,285.15,71,1.5,3
379,Būkān,IR,36.52,46.21,279.25,279.25,279.25,51,1.71,87
380,Howard,US,39.25,-76.93,288.94,290.37,287.04,28,7.2,75
381,Balikpapan,ID,-1.27,116.83,297.29,297.29,297.29,89,2.09,83
382,Belmonte,BR,-15.86,-38.88,300.15,300.15,300.15,78,2.6,75
383,Tokur,RU,53.13,132.9,269.32,269.32,269.32,87,0.79,0
384,Rosetta,EG,31.4,30.42,289.15,289.15,289.15,72,3.1,0
385,Humaitá,BR,-7.51,-63.02,300.65,300.65,300.65,87,0.68,98
386,Chongwe,ZM,-15.33,28.68,290.15,290.15,290.15,82,1.0,98
387,Dicabisagan,PH,17.08,122.42,297.8,297.8,297.8,81,1.01,6
388,Shagonar,RU,51.53,92.8,275.28,275.28,275.28,63,0.91,0
389,Lavrentiya,RU,65.58,-171.0,272.79,272.79,272.79,98,5.05,94
390,Manglaur,IN,29.8,77.87,296.5,296.5,296.5,32,1.78,5
391,Soponya,HU,47.01,18.45,283.17,283.17,283.17,48,1.0,29
392,Cabo San Lucas,MX,22.89,-109.91,296.36,299.26,292.59,52,11.3,75
393,Kościerzyna,PL,54.12,17.98,281.21,281.48,280.37,39,3.1,100
394,French Harbor,HN,16.35,-86.43,301.08,301.08,301.08,80,8.55,1
395,Bull Savanna,JM,17.89,-77.59,302.36,302.36,302.36,58,4.26,13
396,Polyarny,RU,69.2,33.45,263.15,263.15,263.15,92,1.0,88
397,Amahai,ID,-3.33,128.92,299.53,299.53,299.53,77,1.74,0
398,Altamira,BR,-3.2,-52.21,300.31,300.31,300.31,81,0.97,43
399,Touba,CI,8.28,-7.68,299.44,299.44,299.44,58,2.07,37
400,San-Pédro,CI,4.75,-6.64,300.5,300.5,300.5,81,2.23,99
401,Sørland,NO,67.67,12.69,275.03,275.03,275.03,78,5.45,100
402,Massapê,BR,-3.52,-40.34,298.51,298.51,298.51,89,1.72,99
403,Hofn,IS,64.25,-15.21,277.15,277.15,277.15,55,10.8,20
404,Tyret’ Pervaya,RU,53.67,102.31,273.62,273.62,273.62,77,3.16,99
405,Panalingaan,PH,8.78,117.42,300.11,300.11,300.11,79,0.79,0
406,Hambantota,LK,6.12,81.12,300.27,300.27,300.27,81,4.72,26
407,Mehamn,NO,71.04,27.85,267.03,267.03,267.03,92,2.0,85
408,Yumen,CN,40.28,97.2,280.61,280.61,280.61,23,2.24,100
409,Kyren,RU,51.68,102.14,276.92,276.92,276.92,54,1.92,100
410,Vila do Maio,CV,15.13,-23.22,298.15,298.15,298.15,61,4.6,53
411,Banda Aceh,ID,5.56,95.32,299.94,299.94,299.94,80,1.77,46
412,Carutapera,BR,-1.2,-46.02,300.47,300.47,300.47,86,4.29,100
413,Omboué,GA,-1.57,9.26,297.83,297.83,297.83,93,3.6,100
414,College,US,64.86,-147.8,277.7,278.15,276.15,41,3.1,75
415,Dzilam González,MX,21.28,-88.93,302.59,302.59,302.59,75,5.56,0
416,Nokaneng,BW,-19.67,22.27,296.18,296.18,296.18,46,2.36,78
417,Ikalamavony,MG,-21.15,46.58,291.08,291.08,291.08,63,2.98,41
418,Champerico,GT,14.3,-91.92,308.15,308.15,308.15,50,6.2,40
419,Marfino,RU,55.7,37.38,272.33,273.15,271.48,74,4.0,1
420,Khovd,MN,48.01,91.64,276.68,276.68,276.68,39,0.78,100
421,Dongsheng,CN,39.82,109.98,274.73,274.73,274.73,36,1.6,0
422,Manggar,ID,-2.88,108.27,300.03,300.03,300.03,82,2.65,100
423,Sabha,LY,27.04,14.43,295.51,295.51,295.51,20,5.49,0
424,Kemijärvi,FI,66.71,27.43,266.78,266.78,266.78,95,2.57,50
425,Niigata,JP,37.9,139.02,277.57,278.71,275.15,86,1.0,20
426,Laela,TZ,-8.57,32.05,288.92,288.92,288.92,63,1.77,97
427,Kuching,MY,1.55,110.33,297.1,297.15,297.04,94,1.0,20
428,El Carrizo,MX,24.03,-106.88,299.26,299.26,299.26,62,4.02,4
429,Tacarigua,VE,10.09,-67.92,306.09,306.09,306.09,29,1.94,54
430,Kadyy,RU,57.79,43.19,272.35,272.35,272.35,92,3.79,100
431,Huilong,CN,31.81,121.66,282.45,284.82,281.48,85,7.4,10
432,Korla,CN,41.76,86.15,288.66,289.26,288.15,47,0.89,46
433,Nioki,CD,-2.72,17.68,297.26,297.26,297.26,84,1.42,43
434,Tevriz,RU,57.51,72.4,276.17,276.17,276.17,89,1.48,94
435,Norrtälje,SE,59.76,18.7,279.24,280.15,278.71,60,4.6,100
436,Cullinan,ZA,-25.67,28.52,288.28,290.93,287.15,93,0.5,0
437,Erzin,TR,36.96,36.2,288.81,289.82,283.15,72,3.6,0
438,Lashio,MM,22.93,97.75,290.52,290.52,290.52,40,0.69,72
439,Santa Fe,AR,-31.63,-60.7,296.82,297.04,296.48,46,0.89,2
440,Nayoro,JP,44.35,142.46,270.49,270.49,270.49,89,0.14,0
441,Montorio al Vomano,IT,42.58,13.64,284.64,286.48,282.15,66,2.6,19
442,Våler,NO,60.68,11.83,277.55,278.15,277.04,100,4.1,75
443,Sabang,ID,5.89,95.32,301.46,301.46,301.46,76,3.07,37
444,La Rioja,ES,42.25,-2.5,284.61,287.15,282.04,93,1.0,75
445,Ugoofaaru,MV,5.67,73.0,302.28,302.28,302.28,69,2.23,11
446,Ngunguru,NZ,-35.62,174.5,290.67,290.93,289.82,84,2.24,35
447,Domoni,KM,-12.26,44.53,301.69,301.69,301.69,73,3.03,48
448,Payo,ID,-3.75,103.64,296.49,296.49,296.49,89,0.72,72
449,Thanh Hoa,VN,19.8,105.77,295.43,295.43,295.43,90,6.62,75
450,Namatanai,PG,-3.67,152.43,300.94,300.94,300.94,76,1.64,100
451,Klerksdorp,ZA,-26.85,26.67,290.21,290.21,290.21,31,3.24,0
452,Aragarças,BR,-15.9,-52.25,299.99,299.99,299.99,70,0.54,18
453,Talnakh,RU,69.49,88.4,275.15,275.15,275.15,80,13.0,75
454,Luján,AR,-34.57,-59.1,293.89,295.15,292.59,53,2.6,1
455,Margate,GB,51.38,1.39,286.0,288.71,283.15,81,1.5,34
456,Kapoeta,SS,4.77,33.59,303.14,303.14,303.14,31,3.83,82
457,Burnie,AU,-41.07,145.92,284.81,285.37,284.26,64,4.92,24
458,Te Anau,NZ,-45.42,167.72,286.18,286.18,286.18,67,2.26,56
459,Ishigaki,JP,24.34,124.16,292.15,292.15,292.15,93,5.1,75
460,Tasco,CO,5.91,-72.78,288.95,288.95,288.95,37,0.73,96
461,São Borja,BR,-28.66,-56.0,294.68,294.68,294.68,53,2.96,0
462,Katobu,ID,-4.94,122.53,296.87,296.87,296.87,94,1.19,100
463,Tura,IN,25.52,90.22,295.47,295.47,295.47,32,1.99,0
464,Kamina,CD,-8.74,24.99,292.35,292.35,292.35,68,1.63,100
465,Moerai,PF,-22.43,-151.33,300.84,300.84,300.84,79,1.5,42
466,La Ronge,CA,55.1,-105.28,266.15,266.15,266.15,52,8.2,75
467,Calama,CL,-22.47,-68.93,296.15,296.15,296.15,18,7.7,0
468,‘Āhuimanu,US,21.44,-157.84,300.02,302.15,298.15,51,1.5,1
469,Ketchikan,US,55.34,-131.65,281.76,282.15,281.15,34,6.7,1
470,Koulikoro,ML,14.0,-7.75,305.54,305.54,305.54,24,4.39,65
471,Wanaka,NZ,-44.7,169.15,284.8,284.8,284.8,63,3.35,95
472,Vila Franca do Campo,PT,37.72,-25.43,287.15,287.15,287.15,76,7.2,20
473,Carbonia,IT,39.17,8.52,284.78,287.04,283.15,93,1.5,5
474,Dhidhdhoo,MV,6.88,73.1,302.97,302.97,302.97,65,3.14,28
475,Adrian,US,41.9,-84.04,286.52,287.15,285.93,35,5.1,20
476,Kyshtovka,RU,56.55,76.63,274.13,274.13,274.13,93,3.47,100
477,Skovorodino,RU,53.98,123.92,273.15,273.15,273.15,81,0.82,8
478,Praia da Vitória,PT,38.73,-27.07,290.15,290.15,290.15,82,5.04,20
479,Nizwá,OM,22.93,57.53,298.89,298.89,298.89,30,2.4,6
480,Tongren,CN,27.72,109.19,280.86,280.86,280.86,76,0.52,87
481,Klaksvík,FO,62.23,-6.59,279.15,279.15,279.15,100,7.2,100
482,Aygedzor,AM,38.98,46.21,282.15,282.15,282.15,81,2.1,75
483,Monaragala,LK,6.87,81.35,297.1,297.1,297.1,83,1.25,17
484,Chaihe,CN,44.77,129.7,273.14,273.14,273.14,75,0.9,6
485,Potsdam,DE,52.4,13.07,281.51,284.82,278.15,56,0.5,93
486,Aranda de Duero,ES,41.67,-3.69,285.34,285.34,285.34,61,2.19,100
487,Presidencia Roque Sáenz Peña,AR,-26.79,-60.44,296.75,296.75,296.75,45,2.02,0
488,Otradnoye,RU,59.78,30.82,271.04,271.15,270.93,92,1.0,8
489,Sinnamary,GF,5.38,-52.95,300.07,300.07,300.07,75,5.9,100
490,Sitka,US,57.05,-135.33,281.53,282.15,278.15,42,2.6,20
491,Northam,GB,51.03,-4.22,284.85,287.04,282.59,82,1.34,0
492,Vardø,NO,70.37,31.11,270.71,270.71,270.71,89,2.23,61
493,Boa Vista,BR,2.82,-60.67,308.15,308.15,308.15,36,6.2,75
494,Shimanovsk,RU,52.0,127.7,275.42,275.42,275.42,83,2.92,0
495,Bandar-e Anzali,IR,37.47,49.46,283.76,283.76,283.76,76,1.41,92
496,Japura,ID,-0.32,102.35,295.84,295.84,295.84,94,0.38,87
497,Ponta Delgada,PT,37.73,-25.67,287.15,287.15,287.15,76,7.2,20
498,Iskateley,RU,67.68,53.15,262.72,262.72,262.72,95,4.2,81
499,Hirara,JP,24.8,125.28,292.15,292.15,292.15,88,8.2,75
500,Cap Malheureux,MU,-19.98,57.61,298.51,298.71,298.15,83,5.1,40
501,Russell,US,32.35,-85.2,296.22,297.15,295.15,25,3.1,1
502,Matola,MZ,-25.96,32.46,297.15,297.15,297.15,83,4.6,0
503,Slave Lake,CA,55.28,-114.77,271.15,271.15,271.15,46,9.8,75
504,São Sebastião,BR,-23.76,-45.41,295.43,295.43,295.43,65,2.71,44
505,Pringsewu,ID,-5.36,104.97,296.98,296.98,296.98,89,0.78,65
506,Nova Viçosa,BR,-17.89,-39.37,299.29,299.29,299.29,85,4.78,59
507,Suure-Jaani,EE,58.54,25.47,275.37,275.37,275.37,75,1.72,100
508,Pīpri,IN,19.8,75.53,301.88,301.88,301.88,15,3.0,34
509,Korem,ET,12.51,39.52,287.78,287.78,287.78,44,1.49,100
510,Nowy Dwór Gdański,PL,54.21,19.12,280.61,281.48,278.71,39,3.1,100
511,Souillac,MU,-20.52,57.52,298.41,298.71,298.15,83,5.1,40
512,Ulaangom,MN,49.98,92.07,269.77,269.77,269.77,76,0.27,40
513,Gien,FR,47.69,2.63,287.76,289.82,285.37,56,0.88,53
514,Oktyabr'skoye,RU,43.06,44.74,279.98,280.15,279.82,100,3.0,100
515,Inírida,CO,3.87,-67.92,303.68,303.68,303.68,65,1.82,20
516,Iracoubo,GF,5.48,-53.2,299.91,299.91,299.91,75,5.3,100
517,Tommot,RU,58.96,126.29,273.78,273.78,273.78,82,0.42,100
518,Zhuhai,CN,22.28,113.57,291.65,292.15,290.93,82,9.8,40
519,Petropavlovsk-Kamchatskiy,RU,53.05,158.65,271.15,271.15,271.15,74,1.0,40
520,Goiânia,BR,-16.68,-49.25,301.51,303.15,298.15,48,2.6,75
521,Ustka,PL,54.58,16.86,280.65,280.65,280.65,58,3.68,100
522,Seddon,AU,-37.81,144.89,284.03,286.48,282.59,100,5.1,90
523,Pacocha,PE,-17.58,-71.33,295.62,295.62,295.62,73,3.12,68
524,Thinadhoo,MV,0.53,72.93,302.12,302.12,302.12,61,1.75,0
525,Noormarkku,FI,61.59,21.87,272.15,272.15,272.15,74,2.6,100
526,Maţāy,EG,28.42,30.78,291.59,291.59,291.59,31,2.63,0
527,Beringovskiy,RU,63.05,179.32,261.63,261.63,261.63,94,4.69,98
528,Nador,MA,35.17,-2.93,288.69,289.15,288.15,93,3.1,100
529,Fairbanks,US,64.84,-147.72,277.79,278.15,277.15,38,1.81,1
530,Simpang Empat,MY,4.95,100.63,300.27,301.15,298.71,83,1.0,20
531,Genteng,ID,-8.37,114.15,296.85,296.85,296.85,79,0.36,53
532,Porto Empedocle,IT,37.29,13.53,284.82,284.82,284.82,78,6.26,0
533,Camocim,BR,-2.9,-40.84,299.46,299.46,299.46,88,2.63,100
534,Mardin,TR,37.31,40.74,282.15,282.15,282.15,81,1.0,75
535,Havre-St-Pierre,CA,50.23,-63.6,277.15,277.15,277.15,55,4.6,90
536,Chernyshevskiy,RU,63.01,112.47,268.9,268.9,268.9,95,3.58,98
537,Vestmannaeyjar,IS,63.44,-20.27,279.69,279.69,279.69,90,5.05,100
538,Aromashevo,RU,56.86,68.64,276.5,276.5,276.5,81,2.25,99
539,Sal Rei,CV,16.18,-22.92,296.15,296.15,296.15,83,7.2,40
540,Gao,ML,16.64,1.64,305.45,305.45,305.45,17,1.43,73
541,Farsund,NO,58.09,6.8,280.02,280.37,279.82,95,5.17,100
542,Pavlohrad,UA,48.52,35.87,277.15,277.15,277.15,55,4.0,63
543,Berkåk,NO,62.83,10.01,277.25,278.15,276.48,92,3.55,100
544,Nizhniy Kuranakh,RU,58.84,125.49,275.07,275.07,275.07,77,1.35,100
545,Jasper,US,37.2,-94.35,292.3,294.15,290.15,56,10.8,75
546,Novouzensk,RU,50.46,48.14,281.21,281.21,281.21,55,5.3,96
547,Roebourne,AU,-20.78,117.13,300.64,300.64,300.64,44,3.5,0
548,Dongling,CN,41.81,123.58,279.15,279.15,279.15,38,4.0,0
549,Mitsamiouli,KM,-11.38,43.28,301.91,301.91,301.91,75,4.16,22
550,Ojinaga,MX,29.57,-104.42,302.4,303.15,301.48,6,10.3,1
551,Redmond,US,47.67,-122.12,286.11,288.71,283.71,58,1.5,90
552,Festus,US,38.22,-90.4,288.3,289.82,286.48,62,6.7,90
553,Gorontalo,ID,0.54,123.06,295.58,295.58,295.58,84,1.65,6
554,Kuytun,RU,54.34,101.5,271.83,271.83,271.83,83,2.35,93
555,Burgthann,DE,49.35,11.31,282.16,285.37,278.15,57,0.5,0
556,Hermiston,US,45.84,-119.29,288.78,291.15,286.48,22,6.7,20
557,Podgornoye,RU,51.73,39.15,272.15,272.15,272.15,54,4.0,37
558,Tungor,RU,53.38,142.96,270.96,270.96,270.96,96,5.6,59
559,Bagulā,IN,23.32,88.65,297.01,297.01,297.01,84,3.29,0
560,Santa Cruz de la Sierra,BO,-17.8,-63.17,302.77,303.15,302.15,30,3.1,0
